city,latitude,longitude
Melbourne,-37.8136,144.9631
Sydney,-33.8688,151.2093
Brisbane,-27.4698,153.0251
Adelaide,-34.9285,138.6007
Perth,-31.9505,115.8605
Canberra,-35.2809,149.1300
Hobart,-42.8821,147.3272
Gold Coast,-28.0167,153.4000